[
    {
        "name": "Ресторан",
        "address": "Омск, ул. Бульвар Архитекторов, 14/3",
        "coordinates": [
            54.98987397187852,
            73.30583935581973
        ],
        "phone_number": "+7 (962) 058-70-97",
        "working_hours": [
            "10:50:00 - 23:00:00"
        ]
    },
    {
        "name": "напротив СибАДИ",
        "address": "Омск, пр-т Мира, 10/1",
        "coordinates": [
            55.023744344862,
            73.30166327116392
        ],
        "phone_number": "+7 (962) 058-70-97",
        "working_hours": [
            "09:50:00 - 23:59:00"
        ]
    },
    {
        "name": "Остановка Универсам",
        "address": "Омск, ул. Дианова, 3/1а",
        "coordinates": [
            54.99284699999473,
            73.26553299999999
        ],
        "phone_number": "+7 (962) 058-70-97",
        "working_hours": [
            "09:45:00 - 23:10:00"
        ]
    },
    {
        "name": "Остановка Рабиновича",
        "address": "Омск, ул. Красный путь, 61",
        "coordinates": [
            54.99627370513249,
            73.35707193254089
        ],
        "phone_number": "+7 (962) 058-70-97",
        "working_hours": [
            "09:50:00 - 23:59:00"
        ]
    },
    {
        "name": "Остановка 20-я линия",
        "address": "Омск, ул. 10 лет Октября, 166",
        "coordinates": [
            54.98623403499161,
            73.42576844180293
        ],
        "phone_number": "+7 (962) 058-70-97",
        "working_hours": [
            "10:00:00 - 23:10:00"
        ]
    },
    {
        "name": "ЖД Вокзал",
        "address": "Омск, пр-т Карла Маркса, 84",
        "coordinates": [
            54.94104787914114,
            73.38321144047543
        ],
        "phone_number": "+7 (962) 058-70-97",
        "working_hours": [
            "09:50:00 - 23:10:00"
        ]
    },
    {
        "name": "Остановка Лизы Чайкиной",
        "address": "Омск, ул. Богдана Хмельницкого, 182",
        "coordinates": [
            54.96704161970505,
            73.41263901719661
        ],
        "phone_number": "+7 (962) 058-70-97",
        "working_hours": [
            "09:50:00 - 23:15:00"
        ]
    },
    {
        "name": "Гипермаркет Лента",
        "address": "Омск, ул. Лукашевича, 33",
        "coordinates": [
            55.00751048410775,
            73.29437881349182
        ],
        "phone_number": "+7 (962) 058-70-97",
        "working_hours": [
            "10:50:00 - 23:10:00"
        ]
    },
    {
        "name": "Напротив ТЦ Кристалл",
        "address": "Омск, пр-т Мира, 48",
        "coordinates": [
            55.029516162888704,
            73.28439827116392
        ],
        "phone_number": "+7 (962) 058-70-97",
        "working_hours": [
            "09:50:00 - 21:15:00"
        ]
    },
    {
        "name": "Остановка Омский Дом Дружбы",
        "address": "Омск, ул. Кирова, 47б",
        "coordinates": [
            54.94735122907016,
            73.419899
        ],
        "phone_number": "+7 (962) 058-70-97",
        "working_hours": [
            "10:00:00 - 23:00:00"
        ]
    },
    {
        "name": "Ресторан",
        "address": "Омск, ул. Ленина, 14",
        "coordinates": [
            54.98460547157426,
            73.37490739021294
        ],
        "phone_number": "+7 (962) 058-70-97",
        "working_hours": [
            "10:50:00 - 23:00:00"
        ]
    },
    {
        "name": "Напротив ТЦ Фестиваль",
        "address": "Омск, ул. 70 лет Октября, 20",
        "coordinates": [
            54.98215282978779,
            73.32248025529478
        ],
        "phone_number": "+7 (962) 058-70-97",
        "working_hours": [
            "09:50:00 - 23:10:00"
        ]
    },
    {
        "name": "Справа от входа в пятерочку",
        "address": "Омск, ул. Суворова 14",
        "coordinates": [
            54.940750466276974,
            73.34023636799
        ],
        "phone_number": "+7 (962) 058-70-97",
        "working_hours": [
            "09:50:00 - 23:10:00"
        ]
    },
    {
        "name": "вход со стороны улицы Кравченко",
        "address": "Ачинск, 3-й микрорайон, 39/1",
        "coordinates": [
            56.25809133901119,
            90.48673662698364
        ],
        "phone_number": "+7 (967) 612-03-18",
        "working_hours": [
            "10:00:00 - 23:00:00"
        ]
    },
    {
        "name": "вход с улицы Ленина",
        "address": "Бердск, ул. Ленина, 67",
        "coordinates": [
            54.7602828176524,
            83.1056672883606
        ],
        "phone_number": "+7 (903) 900-32-87",
        "working_hours": [
            "09:50:00 - 23:10:00"
        ]
    },
    {
        "name": "Жилой дом, напротив пешеходного перехода",
        "address": "Красноярск, ул. ​Карамзина, 18",
        "coordinates": [
            55.98838448870356,
            92.85470201586902
        ],
        "phone_number": "+7 (905) 976-35-23",
        "working_hours": [
            "10:00:00 - 23:00:00"
        ]
    },
    {
        "name": "ТЦ Славянский",
        "address": "Красноярск, ул. Новосибирская 7",
        "coordinates": [
            56.01812957839155,
            92.82176688227842
        ],
        "phone_number": "+7 (905) 976-35-23",
        "working_hours": [
            "10:00:00 - 23:00:00"
        ]
    },
    {
        "name": "ТЦ Аэро",
        "address": "Красноярск, ул. Аэровокзальная, 1А",
        "coordinates": [
            56.026961873397696,
            92.90798508465568
        ],
        "phone_number": "+7 (905) 976-35-23",
        "working_hours": [
            "10:00:00 - 23:00:00"
        ]
    },
    {
        "name": "",
        "address": "Красноярск, пр-т имени Газеты Красноярский Рабочий, 67",
        "coordinates": [
            56.00680816613101,
            92.94987776322938
        ],
        "phone_number": "+7 (905) 976-35-23",
        "working_hours": [
            "10:00:00 - 23:00:00"
        ]
    },
    {
        "name": "Гипермаркет Лента",
        "address": "Новосибирск, ул. Мясниковой, 29",
        "coordinates": [
            55.105331174929226,
            82.93514566270444
        ],
        "phone_number": "+7 (962) 826-65-43",
        "working_hours": [
            "10:50:00 - 23:10:00"
        ]
    },
    {
        "name": "возле остановки Жилмассив",
        "address": "Новосибирск, ул. Выборная, 118/1",
        "coordinates": [
            54.99912783240329,
            83.00844416931155
        ],
        "phone_number": "+7 (962) 826-65-43",
        "working_hours": [
            "10:00:00 - 23:10:00"
        ]
    },
    {
        "name": "остановка маг. Чемпион",
        "address": "Новосибирск, ул. Дуси Ковальчук,260",
        "coordinates": [
            55.05793399999463,
            82.90970599999999
        ],
        "phone_number": "+7 (962) 826-65-43",
        "working_hours": [
            "10:00:00 - 23:00:00"
        ]
    },
    {
        "name": "ТЦ Бум",
        "address": "Томск, Иркутский тракт, 54",
        "coordinates": [
            56.5044399999929,
            85.01192499999996
        ],
        "phone_number": "+7 (903) 955-65-53",
        "working_hours": [
            "10:00:00 - 23:00:00"
        ]
    }
]